[  
      {  
         "companyId":11166000000000,
         "name":"FOOCO, INC.",
         "duns":"001287762",
         "webAddress":"http://www.www.fooico.com",
         "locationType":"Headquarters",
         "address":{  
            "address1":"700 Anderson Hill Rd",
            "city":"Purchase",
            "state":"NY",
            "country":"United States",
            "postalCode":"10577-1444",
            "latitude":41.038492,
            "longitude":-73.697335
         },
         "telePhones":[  
            {  
               "countryCode":"1",
               "areaCode":"914",
               "phoneNumber":"2532000"
            }
         ],
         "financials":{  
            "annualSales":66415.0
         },
         "employees":{  
            "employeesCount":274000,
            "employeesAtThisLocationCount":1500
         },
         "doingBusinessAs":[  
            "PEPSICO ",
            " PEPSICO FOODS INTERNATIONAL ",
            " PEPSICO WORLDWIDE FOODS ",
            " QUAKER OATS"
         ]
      },
      {  
         "companyId":1294131,
         "name":"FOOCOLA METROPOLITAN BOTTLING COMPANY, INC.",
         "duns":"001294131",
         "webAddress":"www.fooico.com",
         "locationType":"Headquarters",
         "address":{  
            "address1":"1 Pepsi Way",
            "city":"Somers",
            "state":"NY",
            "country":"United States",
            "postalCode":"10589-2204",
            "latitude":41.33036,
            "longitude":-73.6908
         },
         "telePhones":[  
            {  
               "countryCode":"1",
               "areaCode":"914",
               "phoneNumber":"7676000"
            }
         ],
         "financials":{  
            "annualSales":22505.1
         },
         "employees":{  
            "employeesCount":112050,
            "employeesAtThisLocationCount":5
         },
         "doingBusinessAs":[  
            "PEPSI BEVERAGES COMPANY ",
            " PEPSI BOTTLING GROUP ",
            " PEPSICO"
         ]
      },
      {  
         "companyId":7069446,
         "name":"FOOI-COLA METROPOLITAN BOTTLING COMPANY INC",
         "duns":"007069446",
         "webAddress":"www.fooico.com",
         "locationType":"Single Location",
         "address":{  
            "address1":"3801 Brighton Blvd",
            "city":"Denver",
            "state":"CO",
            "country":"United States",
            "postalCode":"80216-3693",
            "latitude":39.77356,
            "longitude":-104.974938
         },
         "telePhones":[  
            {  
               "countryCode":"1",
               "areaCode":"303",
               "phoneNumber":"2929220"
            }
         ],
         "financials":{  
            "annualSales":52.8
         },
         "employees":{  
            "employeesCount":500,
            "employeesAtThisLocationCount":500
         },
         "doingBusinessAs":[  
            "PEPSICO WEST ",
            " Pepsi-Cola"
         ]
      },
      {  
         "companyId":885580159,
         "name":"FOO-Cola Panamericana, S.R.L.",
         "duns":"885580159",
         "webAddress":"www.fooco.com",
         "locationType":"Single Location",
         "address":{  
            "address1":"Centro Empresarial Polar, P.H.",
            "address2":"Edif. Parque Cristal, Torre Este, Piso 14",
            "city":"Caracas",
            "state":"Distrito Federal",
            "country":"Venezuela"
         },
         "telePhones":[  
            {  
               "countryCode":"58",
               "phoneNumber":"2122023111"
            }
         ]
      },
      {  
         "companyId":875041857,
         "name":"Foosi Cola (Bahamas) Bottling Co. Ltd.",
         "duns":"875041857",
         "webAddress":"www.foosi.com",
         "locationType":"Single Location",
         "address":{  
            "address1":"Prince Charles Drive",
            "city":"Nassau",
            "state":"New Prov",
            "country":"Bahamas"
         },
         "telePhones":[  
            {  
               "countryCode":"1",
               "areaCode":"242",
               "phoneNumber":"3646666"
            }
         ],
         "employees":{  
            "employeesCount":90,
            "employeesAtThisLocationCount":90
         }
      }
]